<?xml version="1.0" encoding="utf-8"?>
<ArrayOfVolunteer xmlns:xsi="http://www.w3.org/2001/XMLSchema-instance" xmlns:xsd="http://www.w3.org/2001/XMLSchema">
  <Volunteer>
    <Id>328462635</Id>
    <Name>Dani Levy</Name>
    <Phone>0504133382</Phone>
    <Email>Dani Levy@gmail.com</Email>
    <Role>Volunteer</Role>
    <Active>true</Active>
    <DistanceType>walking</DistanceType>
    <Latitude>32.084027</Latitude>
    <Longitude>34.812335</Longitude>
    <Password>Dani Levy0504133382</Password>
    <Address>בן גוריון 22, רמת גן</Address>
    <MaxDistanceForCall>9.642441416697684</MaxDistanceForCall>
  </Volunteer>
  <Volunteer>
    <Id>327773271</Id>
    <Name>Eli Amar</Name>
    <Phone>0556726282</Phone>
    <Email>Eli Amar@gmail.com</Email>
    <Role>Manager</Role>
    <Active>false</Active>
    <DistanceType>walking</DistanceType>
    <Latitude>32.090468</Latitude>
    <Longitude>34.878975</Longitude>
    <Password>Eli Amar0556726282</Password>
    <Address>ז'בוטינסקי 33, פתח תקווה</Address>
    <MaxDistanceForCall>32.60573623048737</MaxDistanceForCall>
  </Volunteer>
  <Volunteer>
    <Id>327883591</Id>
    <Name>Yair Cohen</Name>
    <Phone>0527175821</Phone>
    <Email>Yair Cohen@gmail.com</Email>
    <Role>Volunteer</Role>
    <Active>true</Active>
    <DistanceType>TraveledByCar</DistanceType>
    <Latitude>32.078932</Latitude>
    <Longitude>34.786432</Longitude>
    <Password>Yair Cohen0527175821</Password>
    <Address>דרך בגין 132, תל אביב</Address>
    <MaxDistanceForCall>38.69336547017668</MaxDistanceForCall>
  </Volunteer>
  <Volunteer>
    <Id>327887048</Id>
    <Name>Ariela Levin</Name>
    <Phone>0527175820</Phone>
    <Email>Ariela Levin@gmail.com</Email>
    <Role>Manager</Role>
    <Active>false</Active>
    <DistanceType>TraveledByCar</DistanceType>
    <Latitude>32.609877</Latitude>
    <Longitude>35.288423</Longitude>
    <Password>Ariela Levin0527175820</Password>
    <Address>בגין 4, עפולה</Address>
    <MaxDistanceForCall>19.301727654350902</MaxDistanceForCall>
  </Volunteer>
  <Volunteer>
    <Id>327934857</Id>
    <Name>Dina Klein</Name>
    <Phone>0504160838</Phone>
    <Email>Dina Klein@gmail.com</Email>
    <Role>Volunteer</Role>
    <Active>true</Active>
    <DistanceType>TraveledByCar</DistanceType>
    <Latitude>31.960252</Latitude>
    <Longitude>34.804289</Longitude>
    <Password>Dina Klein0504160838</Password>
    <Address>רוטשילד 18, ראשון לציון</Address>
    <MaxDistanceForCall>32.418642013341184</MaxDistanceForCall>
  </Volunteer>
  <Volunteer>
    <Id>328115522</Id>
    <Name>Shira Israelof</Name>
    <Phone>0504156891</Phone>
    <Email>Shira Israelof@gmail.com</Email>
    <Role>Manager</Role>
    <Active>false</Active>
    <DistanceType>Aerial</DistanceType>
    <Latitude>32.090468</Latitude>
    <Longitude>34.878975</Longitude>
    <Password>Shira Israelof0504156891</Password>
    <Address>ז'בוטינסקי 33, פתח תקווה</Address>
    <MaxDistanceForCall>6.659869859454498</MaxDistanceForCall>
  </Volunteer>
  <Volunteer>
    <Id>328118245</Id>
    <Name>David Gold</Name>
    <Phone>0503133382</Phone>
    <Email>David Gold@gmail.com</Email>
    <Role>Volunteer</Role>
    <Active>true</Active>
    <DistanceType>Aerial</DistanceType>
    <Latitude>34.769863</Latitude>
    <Longitude>32.068588</Longitude>
    <Password>David Gold0503133382</Password>
    <Address>אלנבי 99, תל אביב</Address>
    <MaxDistanceForCall>29.370488039449178</MaxDistanceForCall>
  </Volunteer>
  <Volunteer>
    <Id>328128061</Id>
    <Name>Miriam Azulay</Name>
    <Phone>0527175221</Phone>
    <Email>Miriam Azulay@gmail.com</Email>
    <Role>Volunteer</Role>
    <Active>true</Active>
    <DistanceType>walking</DistanceType>
    <Latitude>32.070446</Latitude>
    <Longitude>34.794667</Longitude>
    <Password>Miriam Azulay0527175221</Password>
    <Address>הרצל 1, תל אביב</Address>
    <MaxDistanceForCall>28.102589372001574</MaxDistanceForCall>
  </Volunteer>
  <Volunteer>
    <Id>328159801</Id>
    <Name>Eyal Shani</Name>
    <Phone>0528175820</Phone>
    <Email>Eyal Shani@gmail.com</Email>
    <Role>Manager</Role>
    <Active>false</Active>
    <DistanceType>Aerial</DistanceType>
    <Latitude>32.074522</Latitude>
    <Longitude>34.789123</Longitude>
    <Password>Eyal Shani0528175820</Password>
    <Address>שדרות מנחם בגין 85, תל אביב</Address>
    <MaxDistanceForCall>28.80452833189701</MaxDistanceForCall>
  </Volunteer>
  <Volunteer>
    <Id>328177191</Id>
    <Name>Noa Bar</Name>
    <Phone>0504160837</Phone>
    <Email>Noa Bar@gmail.com</Email>
    <Role>Volunteer</Role>
    <Active>true</Active>
    <DistanceType>Aerial</DistanceType>
    <Latitude>31.764492</Latitude>
    <Longitude>35.220554</Longitude>
    <Password>Noa Bar0504160837</Password>
    <Address>עמק רפאים 34, ירושלים</Address>
    <MaxDistanceForCall>49.38118503087687</MaxDistanceForCall>
  </Volunteer>
  <Volunteer>
    <Id>328178371</Id>
    <Name>Yael Harel</Name>
    <Phone>0504756891</Phone>
    <Email>Yael Harel@gmail.com</Email>
    <Role>Manager</Role>
    <Active>false</Active>
    <DistanceType>TraveledByCar</DistanceType>
    <Latitude>31.906328</Latitude>
    <Longitude>35.004601</Longitude>
    <Password>Yael Harel0504756891</Password>
    <Address>שדרות רבין 18, מודיעין</Address>
    <MaxDistanceForCall>20.046336527536084</MaxDistanceForCall>
  </Volunteer>
  <Volunteer>
    <Id>328183934</Id>
    <Name>zipi salomon</Name>
    <Phone>0504113382</Phone>
    <Email>zipi salomon@gmail.com</Email>
    <Role>Volunteer</Role>
    <Active>true</Active>
    <DistanceType>Aerial</DistanceType>
    <Latitude>32.016736</Latitude>
    <Longitude>34.771445</Longitude>
    <Password>zipi salomon0504113382</Password>
    <Address>ביאליק 25, חולון</Address>
    <MaxDistanceForCall>14.155253746122288</MaxDistanceForCall>
  </Volunteer>
  <Volunteer>
    <Id>328184304</Id>
    <Name>avigail levy</Name>
    <Phone>0556723282</Phone>
    <Email>avigail levy@gmail.com</Email>
    <Role>Manager</Role>
    <Active>false</Active>
    <DistanceType>walking</DistanceType>
    <Latitude>32.080126</Latitude>
    <Longitude>34.774455</Longitude>
    <Password>avigail levy0556723282</Password>
    <Address>דיזנגוף 65, תל אביב</Address>
    <MaxDistanceForCall>44.81844701416529</MaxDistanceForCall>
  </Volunteer>
  <Volunteer>
    <Id>328119425</Id>
    <Name>Rachely Green</Name>
    <Phone>0556724282</Phone>
    <Email>Rachel Green@gmail.com</Email>
    <Role>Manager</Role>
    <Active>false</Active>
    <DistanceType>TraveledByCar</DistanceType>
    <Latitude>32.3297835</Latitude>
    <Longitude>34.8533877</Longitude>
    <Password>Rachel Green0556724282</Password>
    <Address>הרצל 8, נתניה</Address>
    <MaxDistanceForCall>46.836026079320376</MaxDistanceForCall>
  </Volunteer>
  <Volunteer>
    <Id>328216437</Id>
    <Name>!!!yaeli shushan</Name>
    <Phone>0527575821</Phone>
    <Email>yaeli shushan@gmail.com</Email>
    <Role>Volunteer</Role>
    <Active>true</Active>
    <DistanceType>TraveledByCar</DistanceType>
    <Latitude>32.0634638</Latitude>
    <Longitude>34.7697064</Longitude>
    <Password>yaeli shushan0527575821</Password>
    <Address>הרצל 2, תל אביב</Address>
    <MaxDistanceForCall>30</MaxDistanceForCall>
  </Volunteer>
</ArrayOfVolunteer>